,City,Lat,Lng,Max Temp,Humidity,Cloudiness,Wind Speed,Country,Date
0,New Norfolk,-42.78,147.06,60.998000000000026,61,0,1.38,AU,1607891116
1,Thompson,55.74,-97.86,-11.199999999999953,69,40,5.7,CA,1607891116
2,Busselton,-33.65,115.33,48.00200000000008,97,5,3.54,AU,1607891116
3,Pires do Rio,-17.3,-48.28,83.30000000000001,58,84,3.05,BR,1607891116
4,Codrington,-38.27,141.97,67.60400000000006,42,7,4.72,AU,1607891116
5,Rikitea,-23.12,-134.97,76.13600000000008,72,6,3.37,PF,1607891117
6,Namatanai,-3.67,152.43,80.42000000000007,80,62,1.45,PG,1607891117
7,Mahébourg,-20.41,57.7,75.2,88,40,5.1,MU,1607891117
8,Gazojak,41.19,61.4,22.964000000000034,88,0,1.69,TM,1607891117
9,Flinders,-34.58,150.86,66.00200000000008,92,63,0.45,AU,1607891118
10,Hithadhoo,-0.6,73.08,82.36400000000003,77,50,6.87,MV,1607891118
11,Santa Cruz de la Sierra,-17.8,-63.17,84.2,70,75,7.7,BO,1607891118
12,Punta Arenas,-53.15,-70.92,51.8,57,40,10.8,CL,1607891091
13,Taitung City,22.76,121.14,69.38600000000008,76,51,2.71,TW,1607891118
14,Hambantota,6.12,81.12,76.01000000000008,83,100,5.93,LK,1607890976
15,Arraial do Cabo,-22.97,-42.03,80.6,74,75,3.6,BR,1607891118
16,Znamenskoye,57.13,73.83,8.258000000000003,96,99,2.28,RU,1607891119
17,Metro,-5.11,105.31,73.13000000000005,92,100,2.09,ID,1607891119
18,Mangai,-4.05,19.53,70.25,86,43,0.62,CD,1607891119
19,Krasnoarmeysk,51.02,45.7,6.998000000000022,71,99,0.45,RU,1607891119
20,Dikson,73.51,80.55,-6.069999999999958,91,100,5.84,RU,1607891119
21,Port Alfred,-33.59,26.89,66.99199999999999,95,51,7.9,ZA,1607891120
22,Magadan,59.57,150.8,-5.601999999999975,85,66,6.59,RU,1607891120
23,Airai,-8.93,125.41,62.564000000000036,100,100,0.21,TL,1607891120
24,Barrow,71.29,-156.79,-3.9999999999999503,70,1,10.8,US,1607891102
25,Atuona,-9.8,-139.03,79.17800000000007,71,2,6.25,PF,1607890855
26,Viedma,-40.81,-63.0,73.00400000000005,22,50,8.89,AR,1607891120
27,The Valley,18.22,-63.06,84.2,78,40,5.1,AI,1607891120
28,Khovd,48.01,91.64,-2.6319999999999695,80,88,0.42,MN,1607891121
29,Ahipara,-35.17,173.17,62.76200000000006,66,68,2.49,NZ,1607890542
30,Muli,2.92,73.57,82.50800000000001,74,80,4.37,MV,1607891121
31,Mataura,-46.19,168.86,53.99600000000005,78,98,4.47,NZ,1607891121
32,Broome,42.25,-75.83,42.998000000000026,69,90,4.1,US,1607891121
33,Narsaq,60.92,-46.05,26.6,86,75,1.08,GL,1607891121
34,Saldanha,-33.01,17.94,59.0,72,62,1.5,ZA,1607891121
35,Kapaa,22.08,-159.32,78.00800000000001,78,1,3.1,US,1607890978
36,Saskylakh,71.92,114.08,-21.549999999999947,84,100,8.35,RU,1607891059
37,Havre-St-Pierre,50.23,-63.6,12.2,66,90,8.2,CA,1607891122
38,Tautira,-17.73,-149.15,84.2,66,20,1.5,PF,1607891122
39,Ibanda,-2.8,32.47,64.90400000000005,82,100,1.53,TZ,1607891122
40,Butaritari,3.07,172.79,81.44600000000005,76,7,6.56,KI,1607891122
41,Mount Isa,-20.73,139.5,78.80000000000001,69,100,5.1,AU,1607891122
42,Mlonggo,-6.53,110.7,77.46800000000009,85,100,2.04,ID,1607891122
43,Margate,51.38,1.39,51.00800000000001,91,100,4.47,GB,1607890862
44,Poum,-20.23,164.02,81.12200000000004,80,64,10.62,NC,1607891123
45,Rawson,-43.3,-65.1,66.50600000000003,30,93,2.63,AR,1607890827
46,Tomatlán,19.93,-105.25,86.342,39,8,3.03,MX,1607891123
47,Vaini,-21.2,-175.2,82.4,83,20,6.2,TO,1607891123
48,Ulverstone,-41.15,146.17,64.00400000000005,84,98,2.24,AU,1607891123
49,Lebu,-37.62,-73.65,57.75800000000001,66,15,7.84,CL,1607891123
50,East London,-33.02,27.91,69.96200000000006,84,44,6.17,ZA,1607891124
51,Tuktoyaktuk,69.45,-133.04,-9.399999999999949,76,75,5.1,CA,1607891124
52,Pisco,-13.7,-76.22,75.2,64,0,9.3,PE,1607891124
53,Jamestown,42.1,-79.24,35.00600000000003,80,90,5.7,US,1607891124
54,Cape Town,-33.93,18.42,66.00200000000008,67,0,1.5,ZA,1607890681
55,Arrondissement d'Issoudun,47.0,1.83,50.0,87,0,2.6,FR,1607891124
56,Castro,-24.79,-50.01,74.93000000000004,77,99,3.4,BR,1607891124
57,Chokurdakh,70.63,147.92,-21.117999999999988,88,100,2.81,RU,1607891125
58,Albany,42.6,-73.97,46.004000000000055,66,100,4.24,US,1607891125
59,Sibiti,-3.68,13.35,70.86200000000005,100,100,0.23,CG,1607891125
60,Hasaki,35.73,140.83,51.998000000000026,57,20,4.6,JP,1607891125
61,Makkah al Mukarramah,21.43,39.83,75.02000000000007,60,0,1.02,SA,1607891120
62,Kailua,21.4,-157.74,80.99600000000005,83,20,1.08,US,1607890935
63,Avarua,-21.21,-159.78,82.4,78,14,1.5,CK,1607891062
64,Seymchan,62.88,152.43,-23.34999999999995,85,100,0.81,RU,1607891126
65,Chicama,-7.84,-79.15,68.0,77,80,3.6,PE,1607891126
66,Kenora,49.82,-94.43,21.2,85,90,4.6,CA,1607891089
67,Port-Gentil,-0.72,8.78,80.6,88,75,4.6,GA,1607891126
68,Hobart,-42.88,147.33,60.998000000000026,67,20,4.6,AU,1607890999
69,Shingū,33.73,135.98,45.23000000000004,67,39,2.86,JP,1607891126
70,Ushuaia,-54.8,-68.3,46.4,65,75,4.6,AR,1607890604
71,Bethel,41.37,-73.41,55.99400000000007,50,1,5.1,US,1607891123
72,San Jose,37.34,-121.89,57.2,87,90,2.6,US,1607891104
73,Darhan,49.49,105.92,-6.24999999999995,84,0,2.63,MN,1607891127
74,Mubi,10.27,13.26,77.61200000000005,20,100,1.97,NG,1607891127
75,Upernavik,72.79,-56.15,24.944000000000074,98,100,1.35,GL,1607891127
76,La Ronge,55.1,-105.28,-5.799999999999947,70,0,3.1,CA,1607891127
77,Bredasdorp,-34.53,20.04,60.8,82,97,2.6,ZA,1607891127
78,Bambous Virieux,-20.34,57.76,75.2,88,40,5.1,MU,1607891128
79,Nyurba,63.28,118.33,-34.07799999999996,81,96,3.36,RU,1607891128
80,Kaitangata,-46.28,169.85,55.99400000000007,65,99,4.02,NZ,1607891128
81,Maskinongé,46.23,-73.02,37.4,74,95,12.9,CA,1607891128
82,Lata,40.16,-8.33,59.0,91,100,0.45,PT,1607891128
83,Kadoma,34.73,135.58,48.992,66,75,2.1,JP,1607891129
84,Hermanus,-34.42,19.23,60.998000000000026,87,47,3.84,ZA,1607891129
85,Pimenta Bueno,-11.67,-61.19,91.184,49,100,1.39,BR,1607891129
86,Port Moresby,-9.44,147.18,75.2,94,40,2.6,PG,1607891118
87,Esim,4.87,-2.24,79.37600000000009,84,100,2.81,GH,1607891129
88,Marrakesh,31.63,-8.01,59.0,82,0,3.6,MA,1607890911
89,Puerto Ayora,-0.74,-90.35,80.6,65,0,7.7,EC,1607891129
90,Zile,40.3,35.89,46.4,81,75,2.1,TR,1607891130
91,Petilia Policastro,39.11,16.79,53.6,76,0,6.7,IT,1607891130
92,Akot,21.1,77.06,69.54800000000003,65,86,2.53,IN,1607890868
93,Faanui,-16.48,-151.75,79.7,73,6,5.02,PF,1607891131
94,Saint Paul Harbor,57.79,-152.41,42.8,87,90,7.7,US,1607891131
95,Talnakh,69.49,88.4,-9.399999999999949,76,75,3.0,RU,1607890543
96,Tías,28.96,-13.64,66.2,82,75,2.6,ES,1607891131
97,Clyde River,70.47,-68.59,-3.9999999999999503,70,90,2.6,CA,1607891132
98,Ponta do Sol,32.67,-17.1,62.6,82,20,2.1,PT,1607891132
99,Qaanaaq,77.48,-69.36,25.358000000000004,94,100,3.11,GL,1607890982
100,Lavrentiya,65.58,-171.0,14.180000000000039,87,100,14.24,RU,1607891132
101,Guerrero Negro,27.98,-114.06,72.08600000000007,23,0,4.07,MX,1607891132
102,Hilo,19.73,-155.09,77.0,78,90,1.5,US,1607890861
103,Yerbogachën,61.28,108.01,-25.41999999999996,85,93,3.95,RU,1607891133
104,Mabaruma,8.2,-59.78,71.34800000000003,93,100,1.08,GY,1607891133
105,Bayan,46.08,127.4,-13.503999999999955,85,0,2.23,CN,1607891133
106,Kapit,2.02,112.93,72.98600000000008,94,100,0.36,MY,1607891133
107,Mayo,38.89,-76.51,60.8,55,1,4.6,US,1607891133
108,Wajima,37.4,136.9,39.00200000000008,90,100,11.12,JP,1607891134
109,Klaksvík,62.23,-6.59,44.6,81,100,12.9,FO,1607891134
110,Olinda,-8.01,-34.86,80.6,65,75,6.2,BR,1607891134
111,Lagoa,39.05,-27.98,57.72200000000004,66,54,11.0,PT,1607891134
112,Nantucket,41.28,-70.1,53.99600000000005,87,40,3.6,US,1607891011
113,Bilma,18.69,12.92,73.72400000000002,20,0,3.78,NE,1607891134
114,Okhotsk,59.38,143.3,-2.109999999999978,83,100,8.24,RU,1607891135
115,Fortuna,40.6,-124.16,55.004000000000055,92,98,3.57,US,1607891135
116,Sarīla,25.77,79.68,61.483999999999995,53,9,2.87,IN,1607891135
117,Lodja,-3.48,23.43,66.88399999999999,97,91,0.81,CD,1607891135
118,Port Macquarie,-31.43,152.92,66.2,100,90,2.1,AU,1607891135
119,Alofi,-19.06,-169.92,75.2,100,90,3.1,NU,1607891093
120,Ananas,19.25,-71.96,82.4,69,20,6.2,HT,1607891136
121,Vila Velha,-20.33,-40.29,82.4,58,0,7.2,BR,1607891136
122,Coquimbo,-29.95,-71.34,60.8,77,40,6.2,CL,1607890914
123,Epe,6.58,3.98,78.51200000000006,90,3,2.64,NG,1607891136
124,Saint-Philippe,-21.36,55.77,75.2,88,75,9.3,RE,1607891136
125,Benguela,-12.58,13.41,73.92200000000004,74,2,1.6,AO,1607891137
126,Kaeo,-35.1,173.78,64.00400000000005,72,54,2.24,NZ,1607891137
127,Puerto Escondido,15.85,-97.07,82.4,69,20,3.6,MX,1607891137
128,Port Elizabeth,-33.92,25.57,68.0,94,28,4.1,ZA,1607891137
129,Chui,-33.7,-53.46,75.47000000000006,70,100,5.8,UY,1607891137
130,Labuhan,-6.88,112.21,77.27000000000007,85,100,3.01,ID,1607891137
131,Vostok,46.49,135.88,-13.755999999999979,91,91,2.05,RU,1607891138
132,Carnarvon,-24.87,113.63,68.0,77,90,7.2,AU,1607891138
133,Birin,26.89,88.07,45.878000000000064,91,4,1.9,NP,1607891138
134,Hinton,53.4,-117.59,6.800000000000001,65,10,1.0,CA,1607891138
135,Tilichiki,60.47,166.1,3.6860000000000674,96,92,3.36,RU,1607891138
136,Santiago del Estero,-27.8,-64.26,82.49000000000002,30,26,8.65,AR,1607891139
137,Pevek,69.7,170.31,3.7760000000000886,90,100,0.68,RU,1607891139
138,Cartagena,10.4,-75.51,89.6,66,20,5.1,CO,1607891004
139,Naze,28.37,129.48,66.2,59,75,3.1,JP,1607891139
140,Tazovsky,67.47,78.7,-4.557999999999957,92,100,3.6,RU,1607891139
141,Copiapó,-27.37,-70.33,69.80000000000001,56,0,5.7,CL,1607891139
142,Te Anau,-45.42,167.72,49.24400000000007,78,30,0.01,NZ,1607891100
143,Cockburn Town,21.46,-71.14,82.4,69,40,4.1,TC,1607891140
144,Badiraguato,25.37,-107.52,80.00600000000003,65,40,3.1,MX,1607891140
145,Kutum,14.2,24.67,67.53200000000001,23,99,2.55,SD,1607891140
146,Paamiut,61.99,-49.67,22.406000000000027,95,100,18.45,GL,1607891140
147,Energetik,51.74,58.79,15.278000000000066,90,15,2.14,RU,1607891140
148,Goderich,43.75,-81.72,30.2,80,100,3.6,CA,1607891141
149,Touros,-5.2,-35.46,82.4,69,20,4.1,BR,1607891141
150,Lüderitz,-26.65,15.16,62.6,82,0,7.7,NA,1607891141
151,Antalaha,-14.9,50.28,75.38000000000005,77,80,4.26,MG,1607891141
152,Deputatsky,69.3,139.9,-24.771999999999935,87,100,0.09,RU,1607891141
153,Cherskiy,68.75,161.3,-20.451999999999977,88,100,2.61,RU,1607891141
154,Bluff,-46.6,168.33,53.99600000000005,78,99,4.47,NZ,1607891142
155,NEDJO,9.5,35.5,63.14000000000002,34,18,1.88,ET,1607891142
156,Saint George,37.1,-113.58,42.008,34,1,3.1,US,1607891142
157,Manicoré,-5.81,-61.3,86.86400000000003,71,100,1.21,BR,1607891140
158,Narón,43.52,-8.15,59.0,95,100,7.41,ES,1607890925
159,Waingapu,-9.66,120.26,79.03399999999999,78,100,2.13,ID,1607891142
160,Wanning,18.8,110.4,73.56200000000007,92,92,1.48,CN,1607891142
161,Prince George,53.92,-122.75,15.008000000000003,78,90,2.6,CA,1607890997
162,Taltal,-25.4,-70.48,69.31400000000004,48,22,2.6,CL,1607891143
163,Khatanga,71.97,102.5,-7.1859999999999715,91,100,3.01,RU,1607891143
164,Muroto-misakicho,33.28,134.15,56.42600000000009,63,50,10.15,JP,1607891143
165,Cidreira,-30.18,-50.21,72.78800000000004,87,64,2.66,BR,1607891143
166,Tasiilaq,65.61,-37.64,37.4,64,100,8.8,GL,1607891143
167,Pervomayskoye,43.92,46.71,47.60600000000003,72,97,10.35,RU,1607891144
168,Panama City,8.99,-79.52,89.6,55,40,3.1,PA,1607891144
169,Shebalino,51.29,85.68,13.388000000000044,90,100,2.41,RU,1607891144
170,Morros,-9.45,-46.3,92.03000000000004,32,0,1.6,BR,1607891144
171,Kangaatsiaq,68.31,-53.46,26.114000000000033,97,100,9.19,GL,1607891144
172,Lakhnādon,22.6,79.6,64.00400000000005,72,99,1.64,IN,1607891145
173,Nikolskoye,59.7,30.79,24.998000000000026,92,90,1.0,RU,1607891145
174,Tartous,34.89,35.89,60.998000000000026,62,40,3.1,SY,1607891111
175,Cabo San Lucas,22.89,-109.91,78.00800000000001,64,5,5.1,MX,1607891145
176,Carballo,43.21,-8.69,57.2,93,40,4.6,ES,1607890887
177,Springbok,-29.66,17.89,54.71600000000001,61,0,2.09,ZA,1607891145
178,Broken Hill,-31.95,141.43,77.0,29,90,3.1,AU,1607891145
179,Okato,-39.2,173.88,57.992,75,0,6.26,NZ,1607891146
180,Koslan,63.46,48.9,17.00600000000003,96,32,3.9,RU,1607891146
181,Provideniya,64.38,-173.3,19.4,85,90,7.0,RU,1607891146
182,San Juan,-31.54,-68.54,81.62600000000009,21,0,4.89,AR,1607891146
183,Yellowknife,62.46,-114.35,-25.59999999999995,74,5,1.5,CA,1607891146
184,Manokwari,-0.87,134.08,79.71800000000009,75,100,2.27,ID,1607891146
185,Bubaque,11.28,-15.83,81.26600000000002,63,0,5.04,GW,1607891146
186,Nhulunbuy,-12.23,136.77,80.6,88,75,1.93,AU,1607891147
187,Ancud,-41.87,-73.82,55.99400000000007,71,90,6.7,CL,1607891148
188,Bukachacha,52.98,116.92,-15.285999999999966,77,0,1.53,RU,1607891148
189,Isla del Bosque,22.73,-105.85,77.0,57,75,3.6,MX,1607891148
190,Alta Floresta,-9.88,-56.09,91.4,52,75,2.6,BR,1607891148
191,La Primavera,5.49,-70.41,85.208,64,92,4.61,CO,1607891148
192,Muncie,40.19,-85.39,41.0,65,90,1.09,US,1607891148
193,Hualmay,-11.1,-77.61,72.19400000000007,69,22,4.67,PE,1607891149
194,Verkhnyaya Toyma,62.23,45.0,15.26000000000008,95,51,1.79,RU,1607891149
195,Kazygurt,41.76,69.39,32.0,86,90,3.1,KZ,1607891149
196,Naryan-Mar,67.67,53.09,31.73000000000004,98,100,7.79,RU,1607891149
197,Aasiaat,68.71,-52.87,22.49600000000005,98,100,5.4,GL,1607891149
198,Loandjili,-4.76,11.86,78.80000000000001,88,40,2.6,CG,1607891149
199,Saskatoon,52.12,-106.63,-7.599999999999952,69,5,2.1,CA,1607890788
200,Libreville,0.39,9.45,82.4,83,40,3.6,GA,1607891150
201,Elk Plain,47.05,-122.4,44.00600000000003,100,90,2.08,US,1607891150
202,Bundaberg,-24.85,152.35,71.99600000000005,88,75,3.6,AU,1607891150
203,Saryg-Sep,51.5,95.6,-2.001999999999974,90,100,0.8,RU,1607891150
204,Marsh Harbour,26.54,-77.06,75.93800000000005,73,3,1.57,BS,1607891150
205,Boyolangu,-8.12,111.89,74.3180000000001,93,100,0.11,ID,1607891150
206,Gacko,43.17,18.54,41.0,75,20,1.0,BA,1607891151
207,Sambava,-14.27,50.17,77.05400000000006,77,32,6.24,MG,1607891151
208,Chokwé,-24.53,32.98,80.51000000000008,67,0,4.08,MZ,1607891151
209,Orlik,52.52,99.83,-15.843999999999973,78,81,1.06,RU,1607891151
210,Kismayo,-0.36,42.55,79.142,75,0,6.33,SO,1607891151
211,Puri,19.8,85.85,69.80000000000001,94,0,2.53,IN,1607891152
212,Betsiamites,48.94,-68.65,30.2,92,90,13.9,CA,1607891152
213,Tokur,53.13,132.9,-19.389999999999972,88,100,1.05,RU,1607891152
214,Chernyshevskiy,63.01,112.47,-22.773999999999965,87,100,4.76,RU,1607891152
215,Florence,43.77,11.25,46.004000000000055,93,0,1.0,IT,1607891152
216,Ostrovnoy,68.05,39.51,23.81000000000008,97,99,3.64,RU,1607891152
217,Leh,34.17,77.58,5.756000000000029,64,0,0.7,IN,1607891153
218,Houston,29.76,-95.36,71.00600000000003,100,75,3.6,US,1607891148
219,Lompoc,34.64,-120.46,60.998000000000026,82,1,2.6,US,1607891095
220,Grindavik,63.84,-22.43,44.6,76,0,9.8,IS,1607891153
221,Kipini,-2.53,40.53,80.6,74,20,2.6,KE,1607891154
222,Marawi,8.0,124.29,75.00200000000008,91,1,1.79,PH,1607891154
223,Adelaide,-34.93,138.6,80.6,34,0,4.6,AU,1607891154
224,Gananoque,44.33,-76.17,33.998000000000026,1,39,6.58,CA,1607891154
225,Hong Kong,22.29,114.16,69.99800000000002,81,78,5.04,HK,1607890934
226,Tezu,27.92,96.17,62.22200000000004,51,80,1.03,IN,1607890996
227,Baharly,38.44,57.43,29.588000000000044,84,0,4.04,TM,1607891154
228,Port Lincoln,-34.73,135.87,70.43000000000004,71,1,4.93,AU,1607891155
229,Orocué,4.79,-71.34,86.21600000000001,59,92,4.59,CO,1607891155
230,Chivay,-15.64,-71.6,64.22000000000006,29,39,6.17,PE,1607891156
231,Sangar,63.92,127.47,-47.235999999999976,78,78,1.25,RU,1607891156
232,Yulara,-25.24,130.99,77.0,61,95,0.5,AU,1607891157
233,Den Helder,52.96,4.76,44.00600000000003,93,90,8.2,NL,1607891157
234,Manakara,-22.13,48.02,73.31000000000009,76,100,1.73,MG,1607891157
235,Anajatuba,-3.26,-44.62,84.092,74,83,1.93,BR,1607891157
236,Bud,39.45,-86.18,39.992,80,90,1.96,US,1607891157
237,Kavieng,-2.57,150.8,83.13800000000005,76,33,5.1,PG,1607891157
238,Manaure,11.78,-72.44,86.09000000000003,60,1,8.52,CO,1607891157
239,Constitución,-35.33,-72.42,69.22400000000002,35,0,9.52,CL,1607891158
240,Winnemucca,40.97,-117.74,32.0,66,90,5.1,US,1607891158
241,Poli,-3.33,36.8,59.57600000000009,91,0,1.91,TZ,1607891158
242,São Félix do Xingu,-6.64,-51.99,86.43200000000002,61,100,1.68,BR,1607891158
243,Bārmer,25.75,71.38,57.038000000000046,37,0,4.27,IN,1607891158
244,Walvis Bay,-22.96,14.51,62.99600000000005,77,0,3.1,NA,1607891158
245,Leshukonskoye,64.9,45.76,20.33600000000007,97,100,3.96,RU,1607891159
246,Mettlach,49.49,6.6,39.2,86,20,4.1,DE,1607891159
247,Kenai,60.55,-151.26,32.0,93,90,6.7,US,1607891159
248,Sokoni,-6.43,39.55,81.01400000000004,76,0,5.92,TZ,1607891159
249,Pacific Grove,36.62,-121.92,59.0,82,90,2.6,US,1607890877
250,Turochak,52.26,87.12,14.774000000000012,96,100,0.61,RU,1607891159
251,Viloco,-16.95,-67.55,60.98000000000005,49,72,3.73,BO,1607891160
252,Haines Junction,60.75,-137.51,-0.39999999999994884,84,100,0.5,CA,1607891160
253,Huarmey,-10.07,-78.15,72.51800000000009,68,97,4.89,PE,1607891160
254,Ballina,-28.87,153.57,71.6,88,90,9.8,AU,1607891008
255,Sitka,57.05,-135.33,44.6,39,75,5.1,US,1607891081
256,Acapulco de Juárez,16.86,-99.89,86.0,66,20,2.6,MX,1607891042
257,Zavetnoye,47.12,43.89,30.182000000000016,95,100,8.8,RU,1607891160
258,Mizdah,31.45,12.98,50.70200000000008,59,0,7.28,LY,1607890937
259,Yakeshi,49.28,120.73,-26.337999999999944,81,24,1.47,CN,1607891161
260,Yangi Marg`ilon,40.43,71.72,30.2,80,90,1.0,UZ,1607891161
261,Kendrapara,20.5,86.42,69.80000000000001,94,0,1.73,IN,1607891161
262,Newport,51.59,-3.0,53.00600000000003,98,8,1.34,GB,1607891161
263,Kirakira,-10.45,161.92,80.40200000000007,73,100,1.04,SB,1607891161
264,Romitan,39.93,64.38,23.0,79,75,3.1,UZ,1607891162
265,Krasnoyarka,55.33,73.12,19.4,85,75,3.0,RU,1607891162
266,Algiers,36.75,3.04,53.6,93,20,1.5,DZ,1607891023
267,San Cristobal,7.77,-72.22,86.0,58,20,4.1,VE,1607891162
268,Vestmannaeyjar,63.44,-20.27,43.483999999999995,84,100,12.72,IS,1607891162
269,Prince Rupert,54.32,-130.32,46.4,45,90,5.1,CA,1607891162
270,Baykit,61.67,96.37,-8.10399999999995,87,100,1.15,RU,1607891163
271,Mar del Plata,-38.0,-57.56,66.2,42,20,4.6,AR,1607891054
272,Tupik,54.43,119.93,-26.49999999999995,78,0,1.69,RU,1607891163
273,Korsakov,46.63,142.78,3.1999999999999993,84,75,1.0,RU,1607891163
274,Kargopol',61.51,38.95,17.906000000000027,97,98,2.84,RU,1607891163
275,Sakakah,29.97,40.21,57.2,33,0,5.7,SA,1607891163
276,Asău,46.43,26.4,35.00600000000003,2,88,0.86,RO,1607891164
277,Black Forest,39.01,-104.7,28.004000000000055,62,1,4.1,US,1607891164
278,Chala,-7.58,31.27,55.958000000000006,100,92,1.13,TZ,1607891164
279,Aquiraz,-3.9,-38.39,82.4,74,40,6.2,BR,1607891164
280,Helena,46.59,-112.04,26.00600000000003,62,1,0.98,US,1607891062
281,Auki,-8.77,160.7,79.84400000000008,81,97,2.2,SB,1607891164
282,Salalah,17.02,54.09,69.36800000000008,41,0,5.68,OM,1607890875
283,Erzin,36.96,36.2,60.00800000000001,61,100,3.48,TR,1607891166
284,Souillac,-20.52,57.52,75.2,88,40,5.1,MU,1607891166
285,Liberty,31.83,-81.5,75.00200000000008,64,20,1.5,US,1607891166
286,Honāvar,14.28,74.45,73.94000000000003,63,0,1.91,IN,1607891166
287,Teya,60.38,92.63,4.406000000000027,91,100,3.28,RU,1607891167
288,Wufeng,27.45,104.83,33.29600000000005,99,100,1.47,CN,1607891167
289,Puerto del Rosario,28.5,-13.86,68.0,64,75,2.6,ES,1607891167
290,Chimoio,-19.12,33.48,73.00400000000005,100,75,2.1,MZ,1607891167
291,Gondanglegi,-7.75,112.01,74.48000000000005,92,100,2.02,ID,1607891167
292,Bonthe,7.53,-12.51,79.91600000000001,81,0,2.56,SL,1607891167
293,Nizhneudinsk,54.91,99.03,10.238000000000046,90,100,1.54,RU,1607891167
294,Bumbuna,9.05,-11.73,76.04600000000005,74,52,0.99,SL,1607891169
295,Boa Vista,2.82,-60.67,91.4,43,40,4.1,BR,1607891109
296,Vaitape,-16.52,-151.75,80.49199999999999,72,6,5.06,PF,1607891169
297,Kibre Mengist,5.88,38.98,55.43600000000007,64,35,1.13,ET,1607891169
298,Emerald,-23.53,148.17,73.4,53,18,4.6,AU,1607891169
299,Samarai,-10.62,150.67,80.47400000000002,79,100,4.27,PG,1607891169
300,Hamilton,39.18,-84.53,44.6,65,90,0.52,US,1607891131
301,Zhangjiakou,40.81,114.88,5.432000000000016,72,0,3.71,CN,1607891170
302,Avila,40.58,-5.0,44.99600000000005,89,100,0.45,ES,1607891093
303,San Quintín,30.48,-115.95,65.75,43,0,3.45,MX,1607891170
304,Krasnokholmskiy,55.99,55.05,2.786000000000069,94,84,2.64,RU,1607891170
305,Port Blair,11.67,92.75,78.04400000000007,73,95,2.0,IN,1607891170
306,Bathsheba,13.22,-59.52,82.4,78,40,4.1,BB,1607891171
307,Vranovice,48.97,16.61,39.00200000000008,93,90,0.8,CZ,1607891171
308,Westport,41.14,-73.36,59.0,55,99,0.45,US,1607891007
309,Ulaanbaatar,47.91,106.88,-34.59999999999995,59,0,1.0,MN,1607891171
310,Jalu,29.03,21.55,59.61200000000006,51,0,7.25,LY,1607891171
311,Marzuq,14.4,46.47,54.69800000000002,40,0,2.24,YE,1607891171
312,Mandalgovi,45.76,106.27,-9.399999999999949,76,15,2.47,MN,1607891171
313,Hervey Bay,-25.3,152.85,69.00800000000001,95,65,1.79,AU,1607891172
314,Salta,-24.79,-65.41,71.6,78,90,4.1,AR,1607891172
315,Ukiah,39.15,-123.21,51.8,87,75,4.1,US,1607890923
316,Calbuco,-41.77,-73.13,59.0,54,75,4.1,CL,1607891172
317,Leningradskiy,69.38,178.42,14.324000000000012,91,100,6.8,RU,1607891172
318,Eureka,40.8,-124.16,51.998000000000026,93,90,4.6,US,1607891172
319,Buchanan,5.88,-10.05,78.80000000000001,94,75,1.83,LR,1607891172
320,Kitimat,54.05,-128.65,33.998000000000026,73,100,1.92,CA,1607891173
321,Tiksi,71.69,128.87,-29.073999999999963,83,24,1.7,RU,1607891173
322,Half Moon Bay,37.46,-122.43,57.992,100,90,6.7,US,1607890943
323,Kjøllefjord,70.95,27.35,32.0,95,75,3.1,NO,1607891173
324,Faya,18.39,42.45,57.2,37,0,0.93,SA,1607891173
325,Trairi,-3.28,-39.27,83.13800000000005,66,93,6.43,BR,1607891173
326,Diego de Almagro,-26.37,-70.05,84.52400000000002,14,0,6.41,CL,1607891174
327,Båtsfjord,70.63,29.72,32.0,92,75,4.1,NO,1607891174
328,Anloga,5.79,0.9,82.4,83,20,4.1,GH,1607891174
329,Tommot,58.96,126.29,-38.90199999999997,78,35,0.4,RU,1607891174
330,Mayumba,-3.43,10.66,77.64800000000002,87,99,3.48,GA,1607891174
331,Vanavara,60.34,102.28,-15.39399999999997,88,100,2.57,RU,1607891017
332,Kahului,20.89,-156.47,82.4,58,20,2.6,US,1607891065
333,Helong,42.54,129.0,2.1380000000000443,77,6,3.2,CN,1607891175
334,Georgiyevka,43.04,74.71,14.0,85,90,1.0,KZ,1607891175
335,Peniche,39.36,-9.38,60.998000000000026,92,100,4.02,PT,1607891175
336,Goianésia,-15.32,-49.12,80.20400000000006,75,100,0.88,BR,1607891166
337,Massaguet,12.48,15.44,75.2,29,0,0.5,TD,1607891175
338,Rocha,-34.48,-54.33,71.11400000000003,53,100,7.03,UY,1607890974
339,Khakhea,-24.69,23.49,82.25600000000003,37,4,4.87,BW,1607891175
340,Manzhouli,49.6,117.43,-13.485999999999969,85,0,3.65,CN,1607891175
341,Norman Wells,65.28,-126.83,-41.799999999999955,64,20,1.0,CA,1607891176
342,Boromo,11.75,-2.93,80.38399999999999,17,4,0.69,BF,1607891176
343,Pelym,61.01,62.0,18.35600000000003,89,79,3.39,RU,1607891176
344,Yagodnoye,62.55,149.67,-20.41599999999996,84,100,1.41,RU,1607891176
345,Tabas,33.6,56.92,35.6,37,0,1.0,IR,1607890968
346,Mehamn,71.04,27.85,32.0,94,75,6.7,NO,1607891176
347,Muros,42.78,-9.06,59.0,89,84,3.58,ES,1607891177
348,Peleduy,59.63,112.74,-21.567999999999984,81,91,2.45,RU,1607891177
349,Nishihara,26.18,127.76,68.0,77,75,2.6,JP,1607891177
350,Tanabe,33.73,135.37,48.92000000000006,61,54,2.69,JP,1607891177
351,Ust'-Ishim,57.69,71.17,10.526000000000089,96,99,2.7,RU,1607891177
352,Kasongo-Lunda,-6.47,16.82,70.97000000000006,91,92,0.43,CD,1607891177
353,Venice,27.1,-82.45,78.99800000000002,83,1,4.6,US,1607891114
354,Valparaíso,-33.04,-71.63,89.6,32,0,10.3,CL,1607890942
355,Adrar,20.5,-10.07,67.04600000000005,24,100,2.77,MR,1607891178
356,Baker City,44.77,-117.83,30.2,68,90,6.7,US,1607890961
357,Lashio,22.93,97.75,53.81600000000001,95,100,0.22,MM,1607891178
358,Christchurch,-43.53,172.63,59.0,76,59,1.0,NZ,1607890941
359,Skerries,53.58,-6.11,51.8,76,20,8.2,IE,1607891179
360,Sinnamary,5.38,-52.95,82.23800000000006,74,3,3.72,GF,1607891179
361,Ribeira Grande,38.52,-28.7,57.2,71,40,7.2,PT,1607891179
362,Celestún,20.87,-90.4,81.80600000000004,67,6,2.4,MX,1607890986
363,Río Gallegos,-51.62,-69.22,55.400000000000006,35,40,4.6,AR,1607891179
364,Makungu,-8.73,35.28,63.62600000000009,90,90,0.53,TZ,1607891179
365,Alad,12.62,122.25,80.74400000000009,84,22,5.59,PH,1607891179
366,Niterói,-22.88,-43.1,82.99400000000009,74,40,2.1,BR,1607891179
367,Muhafazat Lahij,13.17,44.58,69.53000000000004,65,42,2.42,YE,1607891180
368,Floreşti,47.89,28.3,39.97400000000001,95,100,1.46,MD,1607891180
369,Varzob,38.77,68.82,28.4,92,90,4.0,TJ,1607891180
370,Moerai,-22.43,-151.33,77.108,66,75,1.32,PF,1607891180
371,Ilulissat,69.22,-51.1,26.6,73,100,3.1,GL,1607891132
372,Kurali,30.83,76.58,52.592,86,0,2.2,IN,1607891180
373,Luau,-10.71,22.22,64.77800000000008,98,100,2.1,AO,1607891181
374,Bashtanka,47.41,32.44,42.62000000000006,81,100,6.23,UA,1607891181
375,Beira,-19.84,34.84,80.6,88,40,3.1,MZ,1607891116
376,Volot,57.93,30.7,26.798000000000023,98,100,2.03,RU,1607891181
377,Verkhnyaya Inta,65.98,60.31,21.091999999999995,97,100,8.55,RU,1607891181
378,Zanjān,36.67,48.48,31.532000000000018,85,100,1.24,IR,1607891181
379,Homer,59.64,-151.55,42.8,60,90,5.1,US,1607891181
380,El Alto,-4.27,-81.21,77.0,65,0,10.3,PE,1607891182
381,Wewak,-3.55,143.63,77.16200000000006,89,100,4.29,PG,1607891182
382,Nome,64.5,-165.41,17.6,52,1,9.8,US,1607891182
383,Sandpoint,48.28,-116.55,30.991999999999997,86,90,1.5,US,1607891182
384,Mitú,1.2,-70.17,81.10400000000006,88,89,1.53,CO,1607891000
385,Samarkand,39.65,66.96,28.4,100,90,3.1,UZ,1607891175
386,Elko,41.0,-115.5,24.8,68,90,3.6,US,1607891182
387,Sur,22.57,59.53,71.52800000000008,48,0,5.74,OM,1607891182
388,Batticaloa,7.71,81.69,76.80200000000008,78,86,4.54,LK,1607891183
389,Mareeba,-17.0,145.43,73.4,88,40,0.5,AU,1607891183
390,Dhārchula,29.85,80.53,43.34000000000002,38,0,3.77,IN,1607891183
391,Bartica,6.4,-58.62,86.0,70,75,3.1,GY,1607891183
392,Kumul,42.8,93.45,11.462000000000057,71,0,1.22,CN,1607891183
393,Puerto Nariño,-3.77,-70.38,91.4,63,40,2.1,CO,1607891183
394,Jiujiang,29.73,115.98,38.372000000000035,77,100,7.82,CN,1607891184
395,Longyearbyen,78.22,15.64,19.4,73,75,3.1,SJ,1607891178
396,Esperance,-33.87,121.9,55.400000000000006,87,40,5.1,AU,1607891184
397,Uauá,-9.84,-39.48,91.13000000000005,26,18,5.07,BR,1607891184
398,Movileni,44.37,24.65,42.998000000000026,93,90,1.5,RO,1607891184
399,Coyhaique,-45.58,-72.07,55.400000000000006,54,75,3.6,CL,1607891184
400,La Sarre,48.8,-79.2,13.370000000000061,95,100,3.83,CA,1607891184
401,Kodinsk,58.69,99.18,-5.421999999999933,90,100,1.61,RU,1607891185
402,Severo-Kuril'sk,50.68,156.12,35.83399999999999,92,100,20.1,RU,1607891185
403,Tsabong,-26.02,22.4,81.57200000000003,15,0,2.29,BW,1607891185
404,Grand Gaube,-20.01,57.66,75.00200000000008,82,29,2.24,MU,1607891185
405,Bongandanga,1.5,21.05,71.51000000000008,95,2,1.23,CD,1607891185
406,Blahodatne,50.66,24.25,33.38600000000007,96,100,1.64,UA,1607891185
407,Comodoro Rivadavia,-45.87,-67.5,68.0,30,75,10.8,AR,1607890931
408,Kapuskasing,49.42,-82.43,8.599999999999998,78,58,1.0,CA,1607891185
409,Vardø,70.37,31.11,32.0,86,75,5.1,NO,1607890926
410,Sterling,39.01,-77.43,60.998000000000026,44,75,3.6,US,1607891186
411,Vila Franca do Campo,37.72,-25.43,55.400000000000006,87,75,5.7,PT,1607891186
412,Quirinópolis,-18.45,-50.45,85.35200000000009,55,95,3.57,BR,1607891186
413,Kousséri,12.08,15.03,75.2,29,0,0.5,CM,1607891186
414,Baculin,7.45,126.58,77.93600000000006,77,67,3.45,PH,1607891186
415,Karratha,-20.74,116.85,75.99199999999999,79,11,4.08,AU,1607891186
416,Knysna,-34.04,23.05,62.6,100,0,3.1,ZA,1607890939
417,Saint-Augustin,51.23,-58.65,16.502000000000077,86,100,6.31,CA,1607891017
418,Kiama,-34.68,150.87,66.00200000000008,92,65,0.45,AU,1607891187
419,Itaituba,-4.28,-55.98,87.80000000000001,70,75,2.6,BR,1607891187
420,Severo-Yeniseyskiy,60.37,93.04,1.2380000000000457,94,100,3.61,RU,1607891188
421,George Town,5.41,100.34,78.80000000000001,94,20,1.0,MY,1607891123
422,Sretensk,52.25,117.71,-19.299999999999947,81,0,0.96,RU,1607891188
423,Arcata,40.87,-124.08,51.998000000000026,93,90,4.6,US,1607890999
424,Lorengau,-2.02,147.27,82.86800000000008,79,98,5.03,PG,1607891188
425,Geraldton,-28.77,114.6,57.2,76,40,2.6,AU,1607891188
426,Kano,12.0,8.52,71.6,43,0,1.0,NG,1607891114
427,Torbay,47.67,-52.73,30.002000000000077,92,90,5.7,CA,1607891189
428,Beruwala,6.48,79.98,74.19200000000001,89,81,3.81,LK,1607891189
429,Lac du Bonnet,50.25,-96.06,15.008000000000003,85,100,11.8,CA,1607891189
430,Berlevåg,70.86,29.09,32.0,93,75,6.7,NO,1607891189
431,Antofagasta,-23.65,-70.4,68.0,68,20,7.7,CL,1607890951
432,Alihe,50.57,123.72,-10.929999999999943,82,5,1.96,CN,1607891189
433,Lukulu,-14.37,23.24,69.13399999999999,89,100,4.56,ZM,1607891189
434,Dingle,11.0,122.67,75.45200000000008,91,73,2.84,PH,1607891190
435,Chabahar,25.29,60.64,59.0,54,0,2.1,IR,1607891190
436,Esmeraldas,-19.76,-44.31,89.6,58,40,2.1,BR,1607891190
437,Qaqortoq,60.72,-46.03,26.6,86,75,1.37,GL,1607891190
438,Olafsvik,64.89,-23.71,38.66000000000008,79,99,10.66,IS,1607891190
439,Mahanoro,-19.9,48.8,73.184,83,20,1.96,MG,1607891190
440,Tumen,42.97,129.84,6.38600000000007,72,0,5.97,CN,1607891190
441,Itarema,-2.92,-39.92,83.53399999999999,65,90,7.65,BR,1607891191
442,Mahabalipuram,12.63,80.17,75.2,94,20,1.0,IN,1607891191
443,Mulchén,-37.72,-72.23,75.2,31,0,4.1,CL,1607891191
444,Partyzany,46.33,34.75,44.67200000000004,81,100,10.19,UA,1607891191
445,Jagüey Grande,22.53,-81.13,84.2,58,20,3.1,CU,1607891191
446,Dukat,62.55,155.55,-27.867999999999988,84,100,2.29,RU,1607891191
447,Novaya Malykla,54.2,49.95,5.198000000000025,94,82,2.74,RU,1607891191
448,Feldkirchen,48.15,11.74,42.008,95,83,0.89,DE,1607891191
449,Tornio,65.85,24.15,30.2,100,90,1.5,FI,1607891069
450,Fredericton,45.95,-66.67,33.998000000000026,100,90,2.6,CA,1607891192
451,Saint-Pierre,-21.34,55.48,73.4,88,75,9.3,RE,1607891192
452,Sidi Ali,36.1,0.42,58.56800000000008,77,100,1.88,DZ,1607891192
453,Muzhi,65.37,64.67,15.944000000000074,95,99,2.05,RU,1607891192
454,Navrongo,10.9,-1.09,83.93000000000004,18,0,1.61,GH,1607891192
455,Jatiroto,-7.88,111.12,73.11200000000005,87,100,0.67,ID,1607891192
456,Laguna,38.42,-121.42,51.998000000000026,87,90,7.2,US,1607891193
457,Manatí,18.43,-66.49,82.99400000000009,83,18,1.34,PR,1607891193
458,Khor,47.89,134.95,-1.8219999999999388,81,0,5.02,RU,1607891193
459,Bengkulu,-3.8,102.27,74.71400000000003,85,100,1.73,ID,1607891193
460,Huaihua,27.55,109.96,32.97200000000004,94,100,4.71,CN,1607891193
461,Mount Gambier,-37.83,140.77,73.4,33,75,4.6,AU,1607891193
462,Selimpaşa,41.06,28.38,55.400000000000006,93,75,6.2,TR,1607891193
463,Jiaocheng,24.68,116.14,57.57800000000007,87,100,1.76,CN,1607891054
464,Micheweni,-4.97,39.83,79.91600000000001,79,41,5.48,TZ,1607891194
465,Thinadhoo,0.53,72.93,82.68800000000005,75,91,5.59,MV,1607891194
466,Sainte-Marie,-20.9,55.55,75.2,73,0,9.8,RE,1607891194
467,Pedersore,63.65,22.68,26.99600000000005,92,75,3.1,FI,1607891194
468,Taiyuan,37.87,112.56,8.599999999999998,60,0,1.0,CN,1607891194
469,Kāndhla,29.32,77.27,53.13200000000002,57,0,2.62,IN,1607891194
470,Sioux Lookout,50.1,-91.92,14.0,92,90,3.1,CA,1607891194
471,Kostanay,53.17,63.58,-7.599999999999952,83,0,2.98,KZ,1607891195
472,Srostki,52.42,85.7,13.316000000000006,96,100,1.53,RU,1607891195
473,Takaungu,-3.68,39.86,82.4,83,20,2.1,KE,1607891195
474,Chapais,49.78,-74.85,19.4,92,90,3.1,CA,1607891195
475,Churapcha,62.0,132.43,-49.30599999999998,77,71,1.27,RU,1607891195
476,Abū Zabad,12.35,29.25,75.93800000000005,18,100,4.53,SD,1607891196
477,Nanortalik,60.14,-45.24,30.236000000000068,97,100,7.66,GL,1607891196
478,Linqiong,30.42,103.46,42.998000000000026,86,40,7.0,CN,1607891196
479,Khanbari,27.37,87.2,54.518000000000086,63,43,0.68,NP,1607891196
480,Qianjiang,30.42,112.89,34.12400000000001,76,80,5.84,CN,1607891196
481,Caucaia,-3.74,-38.65,82.4,74,40,6.2,BR,1607890994
482,Kirkwall,58.98,-2.96,44.6,87,100,17.5,GB,1607891197
483,Lapi,17.72,121.9,74.80400000000006,87,87,0.78,PH,1607891197
484,Aklavik,68.22,-135.01,-23.799999999999947,74,20,2.1,CA,1607891158
485,Coromandel,-18.47,-47.2,77.342,79,42,3.73,BR,1607891197
486,Skibbereen,51.55,-9.27,48.2,93,75,8.7,IE,1607891197
487,Gayny,60.31,54.32,11.318000000000087,96,100,3.91,RU,1607891197
488,Inhambane,-23.86,35.38,80.6,83,20,4.1,MZ,1607891197
489,Duminichi,53.93,35.11,28.598000000000024,97,100,4.03,RU,1607891197
490,Soyo,-6.13,12.37,77.50400000000005,80,42,3.3,AO,1607891062
491,Port Hedland,-20.32,118.57,75.2,83,4,1.5,AU,1607891198
492,Iqaluit,63.75,-68.51,5.0,65,75,6.7,CA,1607891198
493,Nan,18.83,100.67,61.41200000000006,88,0,0.42,TH,1607891198
494,Brownsville,25.9,-97.5,82.4,58,20,8.7,US,1607891198
495,Sabang,5.89,95.32,81.08600000000007,71,50,0.14,ID,1607891198
496,Ust'-Omchug,61.15,149.63,-22.557999999999957,81,97,3.21,RU,1607891198
497,Nandigāma,16.78,80.3,68.05400000000006,82,0,1.54,IN,1607891199
498,Dakar,14.69,-17.44,75.2,78,0,3.1,SN,1607890892
499,Nālūt,30.33,10.85,51.87200000000004,52,0,4.27,LY,1607891199
500,Angoche,-16.23,39.91,81.78800000000004,75,92,5.35,MZ,1607891199
501,Rio das Ostras,-22.53,-41.95,86.0,74,20,0.5,BR,1607891199
502,Loíza,18.43,-65.88,82.4,74,40,6.2,PR,1607891199
503,Mandurah,-32.55,115.7,57.00200000000008,76,48,0.89,AU,1607891111
504,Amos,48.57,-78.12,17.6,85,90,3.1,CA,1607891176
505,Mikhaylovsk,45.13,42.03,32.0,91,90,6.0,RU,1607891200
506,Hay River,60.82,-115.8,-18.39999999999995,75,22,1.5,CA,1607890937
507,Kâhta,37.79,38.62,42.8,100,90,3.6,TR,1607891200
508,Caçapava do Sul,-30.51,-53.49,76.6760000000001,69,55,3.12,BR,1607891200
509,Narimanov,46.69,47.85,19.4,85,0,5.0,RU,1607891200
510,Suez,29.97,32.53,71.97800000000007,65,0,10.43,EG,1607890955
511,Holland,42.79,-86.11,35.99600000000005,74,90,3.6,US,1607891038
512,Cravo Norte,6.3,-70.2,85.11800000000008,63,85,4.34,CO,1607891201
513,Palu,-0.89,119.87,74.48000000000005,79,56,1.22,ID,1607891201
514,Fare,-16.7,-151.02,80.49199999999999,72,0,5.48,PF,1607891201
515,Villa Rica,33.73,-84.92,64.00400000000005,60,23,1.79,US,1607891201
516,Aykhal,66.0,111.5,-21.99999999999995,74,0,2.0,RU,1607891099
517,Nuuk,64.18,-51.72,17.6,72,100,4.6,GL,1607891201
518,South Valley,35.01,-106.68,37.99400000000007,37,1,3.16,US,1607891202
519,Paraipaba,-3.44,-39.15,82.00400000000005,73,90,6.26,BR,1607891202
520,Pouembout,-21.13,164.9,77.61200000000005,85,100,2.52,NC,1607891202
521,Lucea,18.45,-78.17,84.2,70,20,8.2,JM,1607891202
522,Ayagoz,47.97,80.44,1.4720000000000368,90,68,2.99,KZ,1607891202
523,Tagusao,9.19,117.81,79.66400000000004,78,72,2.45,PH,1607891202
524,Northam,51.03,-4.22,53.00600000000003,91,5,4.02,GB,1607891202
525,Gouyave,12.16,-61.73,86.0,74,40,5.7,GD,1607891203
526,Ayan,56.45,138.17,-10.659999999999982,93,100,12.2,RU,1607891203
527,Vanimo,-2.67,141.3,80.24000000000002,81,100,2.73,PG,1607891203
528,North Bend,43.41,-124.22,50.0,87,90,8.7,US,1607891203
529,Waipawa,-41.41,175.52,57.2,71,94,5.1,NZ,1607891203
530,Matamoros,25.53,-103.25,75.2,20,75,4.8,MX,1607891203
531,Polyarny,69.2,33.45,24.8,92,75,1.0,RU,1607890993
532,Burns Lake,54.23,-125.75,17.6,78,100,0.98,CA,1607891203
533,Vieques,18.43,-65.83,82.99400000000009,74,40,6.2,PR,1607891204
534,Caravelas,-17.71,-39.25,79.01600000000002,68,2,3.9,BR,1607891086
535,Morón,-34.65,-58.62,77.0,72,50,2.68,AR,1607891204
536,Evensk,61.95,159.23,8.006000000000029,88,100,5.26,RU,1607891204
537,Erdenet,49.03,104.08,-9.219999999999963,82,5,1.26,MN,1607891204
538,Bandarbeyla,9.49,50.81,74.33600000000007,69,0,8.21,SO,1607891204
539,Urusha,54.05,122.9,-20.109999999999978,81,100,2.12,RU,1607891205
540,Zhigansk,66.77,123.37,-43.20399999999995,78,61,6.35,RU,1607891205
541,Batagay,67.63,134.63,-42.53799999999994,75,4,0.79,RU,1607891205
542,Gainesville,29.65,-82.32,77.0,50,1,2.6,US,1607890648
543,Zernograd,46.85,40.31,38.55200000000008,86,100,8.02,RU,1607891205
544,Coari,-4.08,-63.14,86.84600000000006,64,93,0.82,BR,1607891206
545,Baní,18.28,-70.33,86.0,70,20,5.1,DO,1607891206
546,Isangel,-19.55,169.27,80.16800000000009,80,29,9.72,VU,1607891206
547,Areia,-6.96,-35.69,80.6,65,75,7.7,BR,1607891206
548,Chilca,-12.52,-76.74,71.6,68,40,9.3,PE,1607891206
549,Zaqatala,41.63,46.64,33.8,86,4,2.1,AZ,1607891206
550,Borisoglebskiy,57.26,39.15,21.2,73,75,3.0,RU,1607891206
551,Dhing,26.47,92.47,64.83200000000002,80,23,0.84,IN,1607891206
552,Birao,10.28,22.79,80.31200000000007,20,88,2.48,CF,1607891207
553,Luba,3.46,8.55,80.6,100,40,2.6,GQ,1607891207
554,Mimongo,-1.62,11.61,71.16800000000009,93,100,1.8,GA,1607891207
555,Dom Pedrito,-30.98,-54.67,77.75600000000003,76,100,2.58,BR,1607890956
556,Honiara,-9.43,159.95,77.0,88,75,0.83,SB,1607891207
557,Miasskoye,55.28,61.89,8.599999999999998,78,0,3.0,RU,1607891208
558,Katsuura,35.13,140.3,57.2,41,20,12.9,JP,1607891208
559,Bay Saint Louis,30.31,-89.33,66.2,88,90,3.6,US,1607891208
560,Lago da Pedra,-4.33,-45.17,85.73000000000005,69,90,1.6,BR,1607891208
561,Gamba,-2.65,10.0,77.32400000000001,87,100,3.19,GA,1607891208
562,Strelka,58.07,93.03,7.952000000000076,94,100,2.63,RU,1607891208
563,Henties Bay,-22.12,14.28,62.99600000000005,90,3,1.2,NA,1607891209
564,Marabá,-5.37,-49.12,77.0,100,75,0.96,BR,1607890928
565,Sept-Îles,50.2,-66.38,21.2,85,100,6.2,CA,1607891210
566,Fairbanks,64.84,-147.72,6.800000000000001,76,75,3.6,US,1607891109
567,Kramat,-8.13,113.45,75.61400000000003,88,100,0.9,ID,1607891211
568,Luís Correia,-2.88,-41.67,84.68600000000006,68,60,6.3,BR,1607891211
569,Pangnirtung,66.15,-65.71,-5.799999999999947,63,75,3.1,CA,1607891211
570,Tual,-5.67,132.75,85.08200000000002,74,100,6.98,ID,1607890969
571,Valdivia,-39.81,-73.25,62.6,48,75,4.6,CL,1607891107
572,Stornoway,58.21,-6.39,44.6,93,100,8.2,GB,1607891212
573,Severobaykal'sk,55.65,109.32,-9.993999999999971,80,31,2.04,RU,1607891212
574,Bafia,4.75,11.23,74.44400000000007,85,100,1.6,CM,1607891212
575,Tessalit,20.2,1.01,69.24199999999999,25,0,4.33,ML,1607891212
576,Chara,56.91,118.26,-34.05999999999999,70,14,0.21,RU,1607891212
577,Araouane,18.9,-3.53,68.88200000000002,24,0,3.22,ML,1607891213
578,Quatre Cocos,-20.21,57.76,75.2,88,40,5.1,MU,1607891213
579,Takanabe,32.13,131.5,49.87400000000001,68,100,2.84,JP,1607891213
580,San Patricio,28.02,-97.52,82.4,54,75,8.2,US,1607891213
581,Bannu,32.99,70.6,50.45,61,0,0.81,PK,1607891213
582,Ürümqi,43.8,87.6,-0.39999999999994884,84,40,0.61,CN,1607891051
583,High Level,58.52,-117.14,-25.59999999999995,82,75,1.36,CA,1607891213
584,Kavaratti,10.57,72.64,81.842,68,4,1.27,IN,1607891214
585,Abhaynagar,23.01,89.4,68.66600000000001,53,89,2.14,BD,1607891214
586,Tirumullaivāsal,11.23,79.83,74.75,77,72,4.24,IN,1607891214
587,Jaru,-10.44,-62.47,90.842,55,100,0.89,BR,1607891214
588,Oga,46.46,10.35,30.002000000000077,92,0,1.0,IT,1607891214
589,Atchison,39.56,-95.12,32.0,79,90,5.1,US,1607891214
